{
  "mapImageName": "Campus-map",
  "mapWidth": 2000,
  "mapHeight": 1500,
  "nodes": [
    { "id": 1,  "pixelX": 0, "pixelY": 0, "imageName": "GP604BK", "name": "MECC",                           "latitude": 41.74459,  "longitude": -72.69066,  "connections": [{ "to": 2 }, { "to": 11 }] },
    { "id": 2,  "pixelX": 0, "pixelY": 0, "imageName": "GP604FR",                                            "latitude": 41.745523, "longitude": -72.690748, "connections": [{ "to": 1 }, { "to": 3 }] },
    { "id": 3,  "pixelX": 0, "pixelY": 0, "imageName": "GP604FR",                                            "latitude": 41.745485, "longitude": -72.691546, "connections": [{ "to": 2 }, { "to": 4 }, { "to": 12 }] },
    { "id": 4,  "pixelX": 0, "pixelY": 0, "imageName": "GP604FR",                                            "latitude": 41.746398, "longitude": -72.69215,  "connections": [{ "to": 3 }, { "to": 5 }, { "to": 13 }] },
    { "id": 5,  "pixelX": 0, "pixelY": 0, "imageName": "GP604FR", "name": "Under Tunnel to Long Walk",      "latitude": 41.747205, "longitude": -72.692563, "connections": [{ "to": 4 }, { "to": 6 }, { "to": 15 }] },
    { "id": 6,  "pixelX": 0, "pixelY": 0, "imageName": "GP604FR",                                            "latitude": 41.747777, "longitude": -72.6926,   "connections": [{ "to": 5 }, { "to": 7 }, { "to": 16 }] },
    { "id": 7,  "pixelX": 0, "pixelY": 0, "imageName": "GP604FR",                                            "latitude": 41.74912,  "longitude": -72.69273,  "connections": [{ "to": 6 }, { "to": 8 }, { "to": 18 }] },
    { "id": 8,  "pixelX": 0, "pixelY": 0, "imageName": "GP604FR", "name": "Under Tunnel by Chapel",         "latitude": 41.749518, "longitude": -72.692317, "connections": [{ "to": 7 }, { "to": 9 }, { "to": 19 }] },
    { "id": 9,  "pixelX": 0, "pixelY": 0, "imageName": "GP604FR", "name": "Admissions Building Front Door", "latitude": 41.750093, "longitude": -72.691834, "connections": [{ "to": 8 }, { "to": 10 }, { "to": 20 }] },
    { "id": 10, "pixelX": 0, "pixelY": 0, "imageName": "GP604FR", "name": "Bistro",                         "latitude": 41.750883, "longitude": -72.691122, "connections": [{ "to": 9 }, { "to": 21 }] },

    { "id": 11, "pixelX": 0, "pixelY": 0, "imageName": "GP604FR",                                            "latitude": 41.74486,  "longitude": -72.69066,  "connections": [{ "to": 1 },  { "to": 12 }] },
    { "id": 12, "pixelX": 0, "pixelY": 0, "imageName": "GP604FR",                                            "latitude": 41.74580,  "longitude": -72.69068,  "connections": [{ "to": 11 }, { "to": 13 }, { "to": 3 }] },
    { "id": 13, "pixelX": 0, "pixelY": 0, "imageName": "GP604FR",                                            "latitude": 41.74621,  "longitude": -72.69073,  "connections": [{ "to": 12 }, { "to": 14 }, { "to": 4 }] },
    { "id": 14, "pixelX": 0, "pixelY": 0, "imageName": "GP604FR", "name": "Austin Arts",                    "latitude": 41.74652,  "longitude": -72.69094,  "connections": [{ "to": 13 }, { "to": 15 }] },
    { "id": 15, "pixelX": 0, "pixelY": 0, "imageName": "GP604FR", "name": "Library",                        "latitude": 41.74703,  "longitude": -72.69116,  "connections": [{ "to": 14 }, { "to": 16 }, { "to": 5 }] },
    { "id": 16, "pixelX": 0, "pixelY": 0, "imageName": "GP604FR",                                            "latitude": 41.74770,  "longitude": -72.69123,  "connections": [{ "to": 15 }, { "to": 17 }, { "to": 6 }] },
    { "id": 17, "pixelX": 0, "pixelY": 0, "imageName": "GP604FR", "name": "Softball Field",                 "latitude": 41.74833,  "longitude": -72.69099,  "connections": [{ "to": 16 }, { "to": 18 }] },
    { "id": 18, "pixelX": 0, "pixelY": 0, "imageName": "GP604FR",                                            "latitude": 41.74905,  "longitude": -72.69116,  "connections": [{ "to": 17 }, { "to": 19 }, { "to": 7 }] },
    { "id": 19, "pixelX": 0, "pixelY": 0, "imageName": "GP604FR",                                            "latitude": 41.74946,  "longitude": -72.69120,  "connections": [{ "to": 18 }, { "to": 20 }, { "to": 8 }] },
    { "id": 20, "pixelX": 0, "pixelY": 0, "imageName": "GP604FR", "name": "Bottom of Admissions",           "latitude": 41.75001,  "longitude": -72.69109,  "connections": [{ "to": 19 }, { "to": 21 }, { "to": 9 }] },
    { "id": 21, "pixelX": 0, "pixelY": 0, "imageName": "GP604FR", "name": "Side of Bistro",                 "latitude": 41.75043,  "longitude": -72.69107,  "connections": [{ "to": 20 }, { "to": 10 }] }
  ]
}
